City ID,City,Country,Lat,Lng,Max Temp,Humidity,Cloudiness,Wind Speed,Current Description
0,Punta Arenas,CL,-53.15,-70.9167,46.4,61,40,19.57,scattered clouds
1,Thompson,CA,55.7435,-97.8558,42.8,31,75,6.91,broken clouds
2,Hilo,US,19.7297,-155.09,78.8,61,90,3.44,overcast clouds
3,Hithadhoo,MV,-0.6,73.0833,83.12,75,72,17.49,broken clouds
4,Grindavik,IS,63.8424,-22.4338,17.6,57,75,13.8,broken clouds
5,Egvekinot,RU,66.3167,-179.1667,-2.92,75,34,2.77,scattered clouds
6,Albany,US,42.6001,-73.9662,59.0,44,43,1.99,scattered clouds
7,Airai,TL,-8.9266,125.4092,60.08,95,100,3.36,overcast clouds
8,Tonekabon,IR,36.8163,50.8738,51.8,76,0,2.3,clear sky
9,Tuskegee,US,32.424,-85.6916,73.0,28,1,8.05,clear sky
10,Butaritari,KI,3.0707,172.7902,82.22,79,80,16.33,broken clouds
11,Coihaique,CL,-45.5752,-72.0662,60.8,67,75,5.75,broken clouds
12,Maceio,BR,-9.6658,-35.7353,77.0,94,20,2.3,few clouds
13,Hermanus,ZA,-34.4187,19.2345,64.99,90,97,1.99,overcast clouds
14,Waddan,LY,29.1614,16.139,75.92,10,93,12.24,overcast clouds
15,Thap Khlo,TH,16.16,100.5966,75.45,88,100,3.11,overcast clouds
16,Orahovac,XK,42.3994,20.6547,33.8,80,40,4.61,scattered clouds
17,Olkhovatka,RU,50.2831,39.2872,37.49,92,97,6.13,overcast clouds
18,Haimen,CN,23.1935,116.6142,66.2,88,90,6.71,mist
19,Andenes,NO,69.3143,16.1194,28.4,86,71,13.8,broken clouds
20,Vaini,TO,-21.2,-175.2,78.8,89,20,10.36,few clouds
21,Miri,MY,4.4148,114.0089,75.2,94,40,3.44,scattered clouds
22,Chumikan,RU,54.7183,135.315,10.49,88,34,5.91,scattered clouds
23,Ushuaia,AR,-54.8,-68.3,44.6,70,75,24.16,snow
24,Sarkand,KZ,45.41,79.9186,40.51,46,81,9.26,broken clouds
25,Callaway,US,30.153,-85.5699,69.01,60,2,7.0,clear sky
26,Porosozero,RU,62.7191,32.727,31.33,84,97,11.86,overcast clouds
27,Buraydah,SA,26.326,43.975,64.4,29,0,9.22,clear sky
28,Rikitea,PF,-23.1203,-134.9692,77.36,68,63,17.72,broken clouds
29,Barrow,US,71.2906,-156.7887,-4.0,71,1,16.11,clear sky
30,Port Hardy,CA,50.6996,-127.4199,46.4,57,20,12.66,few clouds
31,Imeni Poliny Osipenko,RU,52.4201,136.4853,28.0,57,15,3.56,few clouds
32,Hobart,AU,-42.8794,147.3294,57.99,67,40,6.91,scattered clouds
33,Eenhana,NA,-17.4667,16.3333,71.6,73,5,2.3,clear sky
34,Asau,RO,46.4333,26.4,30.99,65,67,3.47,light snow
35,Avarua,CK,-21.2078,-159.775,84.2,79,75,19.57,light rain
36,Cherskiy,RU,68.75,161.3,-4.09,93,64,1.59,broken clouds
37,Kavieng,PG,-2.5744,150.7967,79.9,79,97,5.53,light rain
38,Gizo,SB,-8.103,156.8419,84.04,72,95,6.08,light rain
39,Tuktoyaktuk,CA,69.4541,-133.0374,-0.4,85,90,17.27,snow
40,North Bend,US,43.4065,-124.2243,60.01,66,1,25.32,clear sky
41,Cape Town,ZA,-33.9258,18.4232,64.99,88,0,17.27,clear sky
42,Kieta,PG,-6.2167,155.6333,82.26,76,99,2.17,light rain
43,Vokhtoga,RU,58.8147,41.0461,29.95,89,89,7.56,overcast clouds
44,Yellowknife,CA,62.456,-114.3525,27.0,46,1,5.75,clear sky
45,Qaanaaq,GL,77.484,-69.3632,-12.51,63,27,6.44,scattered clouds
46,Port Alfred,ZA,-33.5906,26.891,68.56,81,63,12.55,broken clouds
47,Bethel,US,41.3712,-73.414,57.99,35,8,8.63,clear sky
48,Dalsingh Sarai,IN,25.6667,85.8333,73.2,6,0,1.25,clear sky
49,Srednekolymsk,RU,67.45,153.6833,-0.4,93,90,7.9,overcast clouds
50,Strezhevoy,RU,60.7333,77.5889,37.4,65,0,11.18,clear sky
51,Susangerd,IR,31.5608,48.1831,66.2,37,0,9.22,clear sky
52,Comodoro Rivadavia,AR,-45.8667,-67.5,80.6,26,0,13.8,clear sky
53,Myrtle Beach,US,33.6891,-78.8867,71.01,63,1,20.71,clear sky
54,Kaitangata,NZ,-46.2817,169.8464,60.01,65,30,18.01,scattered clouds
55,Ilhabela,BR,-23.7781,-45.3581,72.9,82,52,5.53,broken clouds
56,Ancud,CL,-41.8697,-73.8203,62.01,72,0,10.36,clear sky
57,Cidreira,BR,-30.1811,-50.2056,72.79,76,6,18.03,clear sky
58,Meridian,US,43.6121,-116.3915,73.99,18,1,9.22,clear sky
59,Lavrentiya,RU,65.5833,-171.0,1.51,74,23,7.23,few clouds
60,Hwange,ZW,-18.3693,26.5019,66.74,68,0,1.88,clear sky
61,Bluff,NZ,-46.6,168.3333,54.0,83,91,15.99,overcast clouds
62,Upernavik,GL,72.7868,-56.1549,-11.69,89,36,11.97,scattered clouds
63,Barra,BR,-11.0894,-43.1417,86.0,39,48,3.96,scattered clouds
64,San Patricio,US,28.017,-97.5169,80.6,47,40,12.66,scattered clouds
65,Tiksi,RU,71.6872,128.8694,-16.22,100,100,4.45,overcast clouds
66,Constitucion,CL,-35.3333,-72.4167,59.38,79,12,6.55,few clouds
67,Zarubino,RU,42.63,131.0922,37.36,56,0,5.53,clear sky
68,Chokurdakh,RU,70.6333,147.9167,-21.03,98,55,4.21,broken clouds
69,Lebu,CL,-37.6167,-73.65,58.24,75,34,11.86,scattered clouds
70,Bengkulu,ID,-3.8004,102.2655,76.77,83,100,9.69,light rain
71,Souillac,MU,-20.5167,57.5167,81.0,77,45,8.01,scattered clouds
72,Libreville,GA,0.3925,9.4537,82.4,89,20,6.91,light rain
73,Khatanga,RU,71.9667,102.5,-11.47,85,10,9.28,clear sky
74,Bredasdorp,ZA,-34.5322,20.0403,64.4,88,100,6.91,light rain
75,Atuona,PF,-9.8,-139.0333,80.87,79,69,9.95,broken clouds
76,Villamontes,BO,-21.25,-63.5,73.78,87,100,1.03,heavy intensity rain
77,Praia,CV,14.9215,-23.5087,77.0,57,0,17.27,clear sky
78,Vestmannaeyjar,IS,63.4427,-20.2734,20.97,51,9,22.06,clear sky
79,Talnakh,RU,69.4865,88.3972,4.35,71,100,11.56,overcast clouds
80,Gat,IL,31.61,34.7642,57.99,82,0,5.84,clear sky
81,Mahebourg,MU,-20.4081,57.7,81.0,77,37,8.01,scattered clouds
82,Pitsunda,GE,43.1592,40.3378,51.8,93,90,6.71,overcast clouds
83,Guerrero Negro,MX,27.9769,-114.0611,68.9,58,1,18.1,clear sky
84,Avera,US,33.194,-82.5271,73.4,20,1,5.75,clear sky
85,Padang,ID,-0.9492,100.3543,73.4,94,75,2.3,broken clouds
86,Busselton,AU,-33.65,115.3333,60.01,93,5,1.19,clear sky
87,Saint-Philippe,RE,-21.3585,55.7679,78.8,78,0,4.61,clear sky
88,Bambous Virieux,MU,-20.3428,57.7575,81.0,77,42,8.01,scattered clouds
89,Tongren,CN,27.7172,109.1853,48.88,94,100,3.42,moderate rain
90,Klaksvik,FO,62.2266,-6.589,24.8,58,40,40.29,light snow
91,Ponta Do Sol,PT,32.6667,-17.1,57.0,61,79,3.0,broken clouds
92,Mecca,SA,21.4267,39.8261,76.75,38,100,5.44,overcast clouds
93,Muskogee,US,35.5834,-95.3336,73.0,53,20,13.8,few clouds
94,Chemal,RU,51.4111,86.005,32.92,75,3,5.5,clear sky
95,Loandjili,CG,-4.7561,11.8578,80.6,89,20,1.14,few clouds
96,Pafos,CY,34.7667,32.4167,52.0,87,0,5.75,clear sky
97,Vila Franca Do Campo,PT,37.7167,-25.4333,60.8,94,40,6.91,scattered clouds
98,Vicente Guerrero,MX,19.1194,-98.1708,78.8,9,1,11.5,clear sky
99,Fairbanks,US,64.8378,-147.7164,34.0,80,75,14.97,snow
100,Portland,US,45.5234,-122.6762,57.0,41,75,9.22,broken clouds
101,Salalah,OM,17.0151,54.0924,80.6,78,0,4.61,clear sky
102,Sao Felix Do Xingu,BR,-6.6447,-51.995,76.15,91,42,2.55,light rain
103,Paderborn,DE,51.7191,8.7544,39.0,82,68,1.01,broken clouds
104,Tambun,ID,-6.2641,107.0712,82.0,89,20,3.62,haze
105,George,ZA,-33.963,22.4617,65.64,87,97,3.42,light rain
106,Pisco,PE,-13.7,-76.2167,77.0,65,0,11.5,clear sky
107,Dhrol,IN,22.5667,70.4167,79.03,61,0,9.78,clear sky
108,Faya,SA,18.3851,42.4509,64.4,36,0,4.56,clear sky
109,Longyearbyen,SJ,78.2186,15.6401,24.8,63,75,26.46,broken clouds
110,Aklavik,CA,68.2191,-135.0107,14.0,67,100,5.75,overcast clouds
111,Geraldton,AU,-28.7667,114.6,68.0,88,54,5.75,broken clouds
112,Kijang,KR,35.2442,129.2139,42.8,65,0,6.91,clear sky
113,Mar Del Plata,AR,-38.0023,-57.5575,69.01,94,0,14.97,clear sky
114,Dicabisagan,PH,17.0818,122.4157,75.33,87,19,6.26,few clouds
115,Shenxian,CN,36.2411,115.6672,44.6,45,73,7.4,broken clouds
116,Hovd,MN,48.0056,91.6419,30.31,24,12,1.83,few clouds
117,Mataura,NZ,-46.1927,168.8643,54.0,83,99,15.99,overcast clouds
118,Hangu,CN,39.2489,117.7892,44.6,76,72,4.47,broken clouds
119,Catamarca,AR,-28.4696,-65.7852,75.99,80,18,5.01,few clouds
120,Cabo San Lucas,MX,22.8909,-109.9124,91.4,19,1,24.16,clear sky
121,Castro,BR,-24.7911,-50.0119,59.95,90,39,6.33,scattered clouds
122,Mangrol,IN,21.1167,70.1167,78.03,78,0,8.46,clear sky
123,Wawa,NG,9.9022,4.4192,87.35,17,25,2.42,scattered clouds
124,Alofi,NU,-19.0595,-169.9187,82.4,78,100,10.36,overcast clouds
125,Bathsheba,BB,13.2167,-59.5167,82.4,57,20,12.66,few clouds
126,Half Moon Bay,US,37.4636,-122.4286,63.0,67,1,11.5,clear sky
127,Verkhnevilyuysk,RU,63.4453,120.3167,-17.3,100,99,3.38,overcast clouds
128,Tigil,RU,57.8,158.6667,25.11,85,100,3.18,overcast clouds
129,Alice Springs,AU,-23.7,133.8833,55.4,76,0,5.75,clear sky
130,Kapaa,US,22.0752,-159.319,78.8,53,75,17.27,broken clouds
131,Dunedin,NZ,-45.8742,170.5036,66.0,48,14,18.99,few clouds
132,Faanui,PF,-16.4833,-151.75,82.09,75,19,10.29,few clouds
133,Yenagoa,NG,4.9247,6.2642,79.41,84,100,6.35,overcast clouds
134,Kuala Terengganu,MY,5.3302,103.1408,79.38,83,71,3.29,broken clouds
135,Bayji,IQ,34.9311,43.487,63.28,40,0,7.63,clear sky
136,Iqaluit,CA,63.7506,-68.5145,8.6,78,20,2.3,few clouds
137,Skibbereen,IE,51.55,-9.2667,44.6,76,75,18.41,broken clouds
138,Hillsborough,US,37.5741,-122.3794,62.01,51,75,16.11,broken clouds
139,Dikson,RU,73.5069,80.5464,5.77,90,99,6.4,overcast clouds
140,Kodiak,US,57.79,-152.4072,51.8,46,1,18.41,clear sky
141,Severo-Kurilsk,RU,50.6789,156.125,29.66,82,94,14.29,overcast clouds
142,Huarmey,PE,-10.0681,-78.1522,74.68,73,33,8.55,scattered clouds
143,Chifeng,CN,42.2683,118.9636,41.94,26,66,6.13,broken clouds
144,Isangel,VU,-19.55,169.2667,78.94,68,28,18.23,scattered clouds
145,Kudahuvadhoo,MV,2.6708,72.8944,83.23,74,8,14.41,clear sky
146,Severomuysk,RU,56.1481,113.4267,7.86,96,99,5.68,light snow
147,Zaragoza,ES,41.6561,-0.8773,53.6,47,0,13.8,clear sky
148,Westport,US,41.1415,-73.3579,61.0,25,1,14.97,clear sky
149,New Norfolk,AU,-42.7826,147.0587,57.99,66,65,1.01,broken clouds
150,Ilo,PE,-17.6394,-71.3375,71.31,79,100,7.27,overcast clouds
151,Arraial Do Cabo,BR,-22.9661,-42.0278,77.0,78,40,4.61,scattered clouds
152,Provideniya,RU,64.3833,-173.3,6.8,61,0,2.24,clear sky
153,Jonesboro,US,35.8423,-90.7043,72.0,33,1,13.8,clear sky
154,Bam,IR,29.106,58.357,63.0,13,55,5.5,broken clouds
155,Nikolskoye,RU,59.7035,30.7861,39.0,75,0,6.71,clear sky
156,Machico,PT,32.7,-16.7667,62.6,67,75,2.3,broken clouds
157,Narsaq,GL,60.9167,-46.05,37.4,87,90,3.44,overcast clouds
158,Najran,SA,17.4924,44.1277,69.8,23,57,2.95,dust
159,Gallatin,US,45.6666,-111.2008,75.2,10,1,16.11,clear sky
160,Benguela,AO,-12.5763,13.4055,80.2,83,99,4.88,overcast clouds
161,Georgetown,MY,5.4112,100.3354,84.0,89,20,3.67,few clouds
162,Linxia,CN,35.6003,103.2064,38.07,80,59,2.71,broken clouds
163,Jamestown,US,42.097,-79.2353,53.01,37,1,11.5,clear sky
164,Hasaki,JP,35.7333,140.8333,61.0,94,75,6.91,light rain
165,Taoudenni,ML,22.6783,-3.9836,87.15,6,78,10.54,broken clouds
166,Puerto Ayora,EC,-0.7393,-90.3518,84.2,70,20,13.8,few clouds
167,Laguna,US,38.421,-121.4238,69.01,42,1,8.05,clear sky
168,Srivardhan,IN,18.0333,73.0167,76.39,82,29,5.3,scattered clouds
169,Fortuna,US,40.5982,-124.1573,55.0,81,90,9.22,overcast clouds
170,Pevek,RU,69.7008,170.3133,-9.22,94,97,9.33,overcast clouds
171,Saldanha,ZA,-33.0117,17.9442,64.4,88,11,6.91,few clouds
172,Adrar,MR,20.5022,-10.0711,83.71,11,100,10.63,overcast clouds
173,Nabire,ID,-3.3667,135.4833,75.81,87,57,2.62,broken clouds
174,Grand Forks,US,47.9417,-97.4337,68.0,15,20,4.61,few clouds
175,Rampura,IN,30.25,75.2333,72.75,27,73,7.76,broken clouds
176,Neuenhagen,DE,52.5299,13.6891,44.01,73,98,11.79,overcast clouds
177,Wanaka,NZ,-44.7,169.15,61.0,71,1,5.01,clear sky
178,La Sarre,CA,48.8002,-79.1996,37.36,71,99,6.71,overcast clouds
179,Kruisfontein,ZA,-34.0033,24.7314,66.99,81,98,1.01,overcast clouds
180,Rawson,AR,-43.3002,-65.1023,82.51,32,12,23.31,few clouds
181,Hauterive,FR,46.0901,3.4459,43.0,60,0,3.44,clear sky
182,Swidnik,PL,51.219,22.6962,35.6,80,0,8.05,clear sky
183,Aloleng,PH,16.1307,119.7824,77.88,79,3,5.86,clear sky
184,Tabuk,PH,17.4189,121.4443,71.62,88,45,3.29,scattered clouds
185,Torbay,CA,47.6666,-52.7314,39.99,100,90,11.5,light intensity drizzle
186,The Valley,AI,18.217,-63.0578,84.2,65,20,11.5,few clouds
187,San Quintin,MX,30.4833,-115.95,67.39,60,33,18.16,scattered clouds
188,Qasigiannguit,GL,68.8193,-51.1922,19.4,68,75,5.75,broken clouds
189,Zabol,AF,32.25,67.25,55.54,59,100,7.38,overcast clouds
190,Scarborough,GB,54.2797,-0.4044,46.0,75,100,5.99,overcast clouds
191,Akureyri,IS,65.6835,-18.0878,17.6,67,90,14.97,light snow
192,Yang Talat,TH,16.3998,103.3679,79.0,99,98,6.13,overcast clouds
193,Zyryanka,RU,65.75,150.85,1.17,91,100,10.13,overcast clouds
194,Chuy,UY,-33.6971,-53.4616,68.68,85,12,11.83,few clouds
195,Kumluca,TR,36.3703,30.2869,56.7,76,7,4.59,clear sky
196,Hamilton,US,39.1834,-84.5333,73.4,28,1,5.75,clear sky
197,Ankang,CN,32.68,109.0172,49.33,73,100,2.82,overcast clouds
198,Lagunas,PE,-5.2269,-75.6753,72.19,98,100,1.66,overcast clouds
199,Codrington,AU,-38.2667,141.9667,58.8,64,82,6.33,broken clouds
200,Sao Filipe,CV,14.8961,-24.4956,73.38,74,8,8.63,clear sky
201,Shimoda,JP,34.6667,138.95,64.0,100,75,1.14,broken clouds
202,Yantal,RU,56.8471,105.2542,21.9,97,100,2.26,light snow
203,Umba,RU,66.6871,34.3429,33.58,99,100,10.09,overcast clouds
204,Samsun,TR,41.25,36.3333,57.0,87,75,4.61,broken clouds
205,Khorixas,NA,-20.3667,14.9667,79.14,38,45,6.24,scattered clouds
206,Toumodi,CI,6.5613,-5.0158,80.6,65,20,4.61,few clouds
207,Bantou,CN,26.2151,117.4893,63.91,86,100,2.64,overcast clouds
208,Iisalmi,FI,63.5592,27.1907,39.2,60,0,16.11,clear sky
209,Lorengau,PG,-2.0226,147.2712,80.96,79,100,2.86,overcast clouds
210,Brae,GB,60.3964,-1.353,26.6,74,75,33.38,light snow
211,Rio Grande,BR,-32.035,-52.0986,73.0,86,2,4.0,clear sky
212,Jiexiu,CN,37.0244,111.9125,45.5,45,96,2.21,overcast clouds
213,Bol,TD,13.4586,14.7147,81.81,36,19,14.27,few clouds
214,Hofn,IS,64.2539,-15.2082,17.33,57,36,22.32,scattered clouds
215,Deputatskiy,RU,69.3,139.9,-4.18,95,100,2.48,overcast clouds
216,Kirakira,SB,-10.4544,161.9205,84.6,73,65,2.3,broken clouds
217,Katsuura,JP,35.1333,140.3,64.99,100,75,2.3,broken clouds
218,Champerico,GT,14.3,-91.9167,89.6,58,40,11.5,scattered clouds
219,Almeirim,BR,-1.5233,-52.5817,76.68,92,97,4.45,moderate rain
220,Tabou,CI,4.423,-7.3528,79.0,88,44,5.88,light rain
221,Saskylakh,RU,71.9167,114.0833,-26.21,100,23,4.32,few clouds
222,Tommot,RU,58.9564,126.2925,11.03,93,100,3.0,overcast clouds
223,Mantua,IT,45.1667,10.7833,46.4,49,20,4.61,few clouds
224,La Ronge,CA,55.1001,-105.2842,42.8,56,100,17.27,overcast clouds
225,Kokopo,PG,-4.352,152.2633,78.94,83,91,5.37,overcast clouds
226,Nuuk,GL,64.1835,-51.7216,35.01,93,100,47.0,snow
227,Cascais,PT,38.6979,-9.4215,57.99,76,0,8.99,clear sky
228,Buala,SB,-8.145,159.5921,83.23,78,84,4.83,light rain
229,Palaia Fokaia,GR,37.72,23.9463,66.2,55,20,10.16,few clouds
230,Hualmay,PE,-11.0964,-77.6139,73.67,73,30,8.3,scattered clouds
231,Honavar,IN,14.2833,74.45,76.82,83,17,5.23,few clouds
232,Clyde River,CA,70.4692,-68.5914,-11.2,77,1,9.22,clear sky
233,High Level,CA,58.5169,-117.136,42.8,31,40,4.61,scattered clouds
234,Esperance,AU,-33.8667,121.9,60.8,94,17,5.75,few clouds
235,Kahului,US,20.8947,-156.47,75.2,88,40,19.57,light rain
236,Mana,GF,5.6592,-53.7767,78.06,85,82,9.1,light rain
237,Shu,KZ,43.5983,73.7614,53.01,40,100,8.99,overcast clouds
238,Malpe,IN,13.35,74.7167,82.4,69,40,3.44,scattered clouds
239,Carnarvon,AU,-24.8667,113.6333,75.2,83,14,16.11,few clouds
240,Rocha,UY,-34.4833,-54.3333,65.98,92,26,8.55,scattered clouds
241,Boguchany,RU,58.3814,97.4531,28.49,98,100,2.75,overcast clouds
242,San Ramon,US,37.7799,-121.978,66.99,42,1,10.36,clear sky
243,Trincomalee,LK,8.5711,81.2335,77.95,85,87,6.76,overcast clouds
244,Ust-Tsilma,RU,65.441,52.1498,17.87,98,50,3.65,scattered clouds
245,Kedrovyy,RU,56.1667,91.8167,24.8,100,99,3.67,mist
246,Ostrovnoy,RU,68.0531,39.5131,32.9,91,100,15.99,overcast clouds
247,Apatou,GF,5.155,-54.3472,75.27,96,95,4.03,overcast clouds
248,Chicama,PE,-7.8447,-79.1469,73.4,83,20,8.05,few clouds
249,Cabedelo,BR,-6.9811,-34.8339,80.6,89,40,6.91,scattered clouds
250,Ribeira Grande,PT,38.5167,-28.7,60.91,81,73,16.15,broken clouds
251,Tasiilaq,GL,65.6145,-37.6368,19.4,86,90,23.02,snow
252,Mayumba,GA,-3.432,10.6554,78.91,88,100,5.93,overcast clouds
253,Havoysund,NO,70.9963,24.6622,24.8,86,0,6.91,clear sky
254,Uvalde,US,29.3669,-99.767,75.0,53,90,9.22,overcast clouds
255,Baykit,RU,61.67,96.37,19.51,96,100,2.89,light snow
256,Ladario,BR,-19.0047,-57.6017,87.8,62,20,4.61,light rain
257,Killybegs,IE,54.6333,-8.45,46.4,100,90,19.57,overcast clouds
258,Manggar,ID,-2.8833,108.2667,79.47,81,100,5.03,overcast clouds
259,Santa Cruz De Tenerife,ES,28.4682,-16.2546,64.0,82,75,13.8,broken clouds
260,Canton,CN,23.1167,113.25,72.0,38,99,8.16,overcast clouds
261,Nome,US,64.5011,-165.4064,1.99,71,90,24.16,snow
262,Havelock,US,34.8791,-76.9013,66.99,45,1,13.8,clear sky
263,Kirensk,RU,57.7853,108.1119,13.78,92,100,4.63,overcast clouds
264,Palmer,US,42.1584,-72.3287,57.2,23,20,17.27,few clouds
265,San Pedro De Macoris,DO,18.4616,-69.2972,78.01,83,75,4.61,broken clouds
266,Gilbues,BR,-9.8317,-45.3439,80.73,52,60,3.0,broken clouds
267,Luderitz,NA,-26.6481,15.1594,69.87,66,0,15.59,clear sky
268,Lazaro Cardenas,MX,17.9583,-102.2,83.84,49,78,10.98,broken clouds
269,Carroll,US,39.5501,-77.0164,71.6,21,1,13.8,clear sky
270,Olafsvik,IS,64.8945,-23.7142,19.76,52,100,12.35,overcast clouds
271,Marsh Harbour,BS,26.5412,-77.0636,67.6,57,100,15.26,overcast clouds
272,Port Elizabeth,ZA,-33.918,25.5701,66.2,88,90,10.36,overcast clouds
273,Kilakarai,IN,9.2333,78.7833,82.4,77,39,8.03,scattered clouds
274,Dumjor,IN,22.6408,88.2203,75.2,69,20,8.21,haze
275,Rinconada,MX,19.35,-96.5167,81.0,50,20,12.66,few clouds
276,Saint-Ambroise,CA,48.5501,-71.3324,46.4,31,100,14.97,overcast clouds
277,Turukhansk,RU,65.8167,87.9833,26.98,97,100,11.61,snow
278,Diffa,NE,13.3154,12.6113,81.36,10,1,9.19,clear sky
279,Peplos,GR,40.9583,26.2656,41.74,89,100,20.74,overcast clouds
280,Thurso,GB,58.5927,-3.5259,30.2,86,40,37.98,snow
281,Beringovskiy,RU,63.05,179.3167,2.75,80,31,4.25,scattered clouds
282,Whitehorse,CA,60.7161,-135.0538,41.0,48,75,14.97,broken clouds
283,Hambantota,LK,6.1241,81.1185,69.8,100,0,1.14,clear sky
284,San Angelo,US,31.4638,-100.437,68.0,68,90,11.5,overcast clouds
285,Cururupu,BR,-1.8283,-44.8683,76.08,95,100,5.14,overcast clouds
286,Zhezkazgan,KZ,47.8043,67.7144,37.72,95,100,13.82,moderate rain
287,Handan,CN,36.6006,114.4678,47.41,48,71,6.08,broken clouds
288,Tvedestrand,NO,58.622,8.9315,37.99,65,20,21.85,few clouds
289,Xenia,US,39.6848,-83.9296,72.0,33,1,3.44,clear sky
290,Tangwani,PK,28.2787,68.9972,78.8,50,56,10.27,haze
291,Bereda,ES,43.2686,-7.5406,43.0,99,15,7.0,few clouds
292,Otavalo,EC,0.2333,-78.2667,68.0,60,75,10.36,moderate rain
293,Chipinge,ZW,-20.1883,32.6236,59.54,94,8,2.8,clear sky
294,Zhanaozen,KZ,43.3,52.8,46.44,73,1,7.23,clear sky
295,Buena Vista,US,43.4203,-83.8986,62.6,31,1,9.22,clear sky
296,Beira,MZ,-19.8436,34.8389,75.2,73,20,3.6,light rain
297,Antofagasta,CL,-23.65,-70.4,69.8,60,0,13.8,clear sky
298,Bull Savanna,JM,17.8868,-77.5902,77.83,67,73,12.66,broken clouds
299,East London,ZA,-33.0153,27.9116,66.74,74,5,12.8,clear sky
300,Gwadar,PK,25.1216,62.3254,79.66,73,0,9.84,clear sky
301,Gorontalo,ID,0.5412,123.0595,75.47,93,100,4.03,overcast clouds
302,Zhigansk,RU,66.7697,123.3711,-18.06,99,82,5.48,broken clouds
303,Pozo Colorado,PY,-23.4923,-58.7972,82.8,53,100,6.29,overcast clouds
304,Destin,US,30.3935,-86.4958,70.0,37,1,5.75,clear sky
305,Goderich,CA,43.7501,-81.7165,44.6,65,20,9.22,few clouds
306,Saint-Augustin,CA,51.226,-58.6502,36.16,99,100,18.7,overcast clouds
307,Tirano,IT,46.2154,10.1679,46.0,52,20,3.42,few clouds
308,Sinnai,IT,39.3042,9.2036,55.99,100,20,5.75,few clouds
309,Manali,IN,13.1667,80.2667,82.4,83,40,3.44,mist
310,Eyl,SO,7.9803,49.8164,79.72,76,15,5.64,few clouds
311,Kloulklubed,PW,7.0419,134.2556,77.0,94,75,4.81,broken clouds
312,Tianpeng,CN,30.9866,103.9393,57.0,1,100,3.8,overcast clouds
313,Lata,PT,40.1629,-8.3327,54.0,69,0,1.01,clear sky
314,Denpasar,ID,-8.65,115.2167,77.0,100,20,2.3,few clouds
315,Lapao,BR,-11.3833,-41.8319,79.03,37,4,10.42,clear sky
316,Chapais,CA,49.7834,-74.8492,41.0,52,90,6.91,overcast clouds
317,Kanniyakumari,IN,8.0833,77.5667,79.27,79,6,17.4,clear sky
318,Sevlievo,BG,43.0258,25.1136,39.0,93,100,3.2,overcast clouds
319,Ixtapa,MX,20.7,-105.2,80.6,78,1,13.8,clear sky
320,Sur,OM,22.5667,59.5289,83.62,44,1,7.07,clear sky
321,Naze,JP,28.3667,129.4833,64.4,82,75,11.5,broken clouds
322,Garowe,SO,8.4054,48.4845,75.69,73,30,11.12,scattered clouds
323,Saint George,US,37.1041,-113.5841,88.0,9,1,4.61,clear sky
324,Ukiah,US,39.1502,-123.2078,68.0,42,1,5.88,clear sky
325,Luena,AO,-11.7833,19.9167,66.4,79,78,1.39,broken clouds
326,Camacha,PT,33.0833,-16.3333,60.8,72,20,3.2,few clouds
327,Arauca,CO,7.0847,-70.7591,93.18,38,100,2.53,light rain
328,Khudumelapye,BW,-23.8833,24.75,69.35,44,0,7.78,clear sky
329,Chisec,GT,15.8167,-90.2833,59.0,94,75,4.45,broken clouds
330,Jijiga,ET,9.35,42.8,69.57,47,71,3.36,broken clouds
331,Moron,AR,-34.6534,-58.6198,73.0,69,0,1.99,clear sky
332,Haines Junction,CA,60.7522,-137.5108,41.0,42,100,9.22,overcast clouds
333,Almaznyy,RU,48.0448,40.045,37.4,93,75,8.95,light rain
334,Bujoreni,RO,45.1333,24.35,36.43,98,100,2.37,overcast clouds
335,Mount Isa,AU,-20.7333,139.5,71.6,73,75,3.44,broken clouds
336,Hervey Bay,AU,-25.2986,152.8535,73.0,98,100,5.99,overcast clouds
337,Tura,IN,25.5198,90.2201,68.16,44,53,2.06,broken clouds
338,Tuatapere,NZ,-46.1333,167.6833,54.0,83,97,15.99,overcast clouds
339,Leh,IN,34.1667,77.5833,34.88,87,100,6.87,light snow
340,Pacific Grove,US,36.6177,-121.9166,60.01,58,1,12.66,clear sky
341,Caravelas,BR,-17.7125,-39.2481,77.25,76,54,7.72,broken clouds
342,Chernyshevskiy,RU,63.0128,112.4714,-27.92,100,58,3.56,broken clouds
343,Necochea,AR,-38.5473,-58.7368,73.0,57,11,5.99,few clouds
344,Belem De Sao Francisco,BR,-8.7539,-38.9658,84.61,51,35,21.45,scattered clouds
345,Sitka,US,57.0531,-135.33,39.2,93,90,11.5,light rain
346,Gaoua,BF,10.2992,-3.2508,92.48,16,29,4.88,scattered clouds
347,Katangli,RU,51.7102,143.2326,19.71,70,4,8.95,clear sky
348,Kyren,RU,51.6828,102.1408,32.45,93,99,2.13,overcast clouds
349,Kholodnyy,RU,62.7167,147.95,1.09,84,100,4.43,overcast clouds
350,Peniche,PT,39.3558,-9.3811,57.0,87,0,1.01,clear sky
351,Shitkino,RU,56.3703,98.3543,30.51,98,100,2.46,overcast clouds
352,Alfredo Baquerizo Moreno,EC,-1.9167,-79.5167,80.6,83,75,3.44,moderate rain
353,Pechenga,RU,69.5259,31.1703,33.8,93,75,10.36,broken clouds
354,Aykhal,RU,66.0,111.5,-21.93,100,100,5.44,overcast clouds
355,Mangochi,MW,-14.4782,35.2645,68.9,91,20,4.81,few clouds
356,Djambala,CG,-2.5447,14.7533,70.65,86,99,3.42,light rain
357,Novo Aripuana,BR,-5.1206,-60.3797,80.62,81,100,0.87,overcast clouds
358,Chokwe,MZ,-24.5333,32.9833,65.91,80,0,3.96,clear sky
359,Norman Wells,CA,65.282,-126.8329,23.0,54,75,16.11,broken clouds
360,Rameswaram,IN,9.2833,79.3,83.57,74,34,14.09,scattered clouds
361,Nueva Rosita,MX,27.95,-101.2167,73.99,61,98,5.01,overcast clouds
362,Kuito,AO,-12.3833,16.9333,61.68,73,100,1.45,overcast clouds
363,Abu Kamal,SY,34.4506,40.9171,64.22,36,0,6.44,clear sky
364,Shubarshi,KZ,48.5872,57.1869,40.75,90,83,8.34,broken clouds
365,Nouadhibou,MR,20.931,-17.0347,66.2,77,77,14.97,broken clouds
366,Margate,GB,51.3813,1.3862,46.99,71,23,1.99,few clouds
367,Malanje,AO,-9.5402,16.341,64.0,90,24,1.88,few clouds
368,Te Anau,NZ,-45.4167,167.7167,54.82,75,94,8.25,overcast clouds
369,Marawi,PH,7.9986,124.2928,67.17,95,100,0.49,overcast clouds
370,Greenwood,US,34.1668,-82.1165,73.99,18,1,6.91,clear sky
371,Alvorada,BR,-12.48,-49.1247,80.33,66,24,1.39,few clouds
372,Meulaboh,ID,4.1363,96.1285,76.24,88,100,3.78,overcast clouds
373,Murindo,CO,6.9848,-76.7544,80.65,90,97,3.11,overcast clouds
374,Miraflores,MX,19.2167,-98.8083,78.8,4,20,10.36,few clouds
375,Victoria,HK,22.2855,114.1577,72.0,90,100,1.01,overcast clouds
376,Horki,BY,54.2861,30.9842,31.28,73,65,6.6,broken clouds
377,Shakhtinsk,KZ,49.71,72.5872,41.0,60,0,13.42,moderate rain
378,Chalus,IR,36.655,51.4204,55.4,62,0,4.61,clear sky
379,Kutum,SD,14.2,24.6667,70.3,13,11,10.0,few clouds
380,Gander,CA,48.9682,-54.5906,41.0,93,90,19.57,light intensity drizzle
381,Acajutla,SV,13.5928,-89.8275,89.6,33,0,3.44,clear sky
382,Tual,ID,-5.6667,132.75,83.57,70,80,4.76,broken clouds
383,Gunjur,GM,13.2019,-16.7339,69.8,88,0,8.46,clear sky
384,Vila Velha,BR,-20.3297,-40.2925,78.8,73,40,12.66,scattered clouds
385,Hun,LY,29.1268,15.9477,76.5,10,94,14.16,overcast clouds
386,La Serena,CL,-29.9078,-71.2542,64.4,63,20,8.05,few clouds
387,Orlik,RU,52.5178,99.825,6.93,94,34,1.88,scattered clouds
388,Livingstonia,MW,-10.606,34.1063,63.91,87,94,3.11,light rain
389,Visnes,NO,59.3556,5.2242,33.8,47,20,41.43,light snow
390,Parnamirim,BR,-5.9156,-35.2628,82.4,74,20,10.36,few clouds
391,Omsukchan,RU,62.5333,155.8,-0.96,79,96,5.12,overcast clouds
392,Itaituba,BR,-4.2761,-55.9836,79.66,83,100,2.57,light rain
393,Ridgecrest,US,35.6225,-117.6709,91.4,5,1,6.91,clear sky
394,Bowling Green,US,36.9903,-86.4436,71.6,28,1,8.05,clear sky
395,Sorland,NO,67.667,12.6934,36.07,57,100,21.43,overcast clouds
396,Marsa Matruh,EG,31.3525,27.2453,66.2,37,0,8.05,clear sky
397,Fairfield,US,41.2668,-73.3162,60.8,25,1,13.8,clear sky
398,Nur,PL,52.6683,22.3221,34.0,69,7,9.33,clear sky
399,Mogok,MM,22.9167,96.5,58.08,70,72,2.37,broken clouds
400,Quatre Cocos,MU,-20.2078,57.7625,81.0,77,43,8.01,light rain
401,Camopi,GF,3.1655,-52.3158,74.61,98,100,3.49,light rain
402,Sola,VU,-13.8833,167.55,78.8,94,90,18.39,overcast clouds
403,Adra,ES,36.7496,-3.0206,61.0,77,0,3.44,clear sky
404,Hobyo,SO,5.3505,48.5268,82.24,69,70,13.15,broken clouds
405,Zlobin,HR,45.2924,14.6541,44.6,45,0,6.91,clear sky
406,Hanzhong,CN,33.0728,107.0303,45.88,90,100,1.32,overcast clouds
407,Alyangula,AU,-13.8483,136.4192,79.59,59,50,3.98,scattered clouds
408,Filadelfia,US,39.9523,-75.1638,68.0,24,20,12.66,few clouds
409,Svetlogorsk,BY,52.6333,29.7333,32.5,77,29,6.26,scattered clouds
410,Fukue,JP,32.6881,128.8419,54.64,68,36,29.91,scattered clouds
411,Yarada,IN,17.65,83.2667,80.19,82,28,1.99,scattered clouds
412,Ballina,AU,-28.8667,153.5667,68.0,94,75,3.44,broken clouds
413,Santiago De Chuco,PE,-8.15,-78.1833,54.28,86,100,3.11,moderate rain
414,Salmas,IR,38.1973,44.7653,44.6,57,0,6.91,clear sky
415,Nizhniy Tsasuchey,RU,50.5167,115.1333,31.01,67,35,15.28,scattered clouds
416,San Vicente,AR,-26.6167,-54.1333,71.47,65,100,2.19,overcast clouds
417,Kang,BW,-23.6752,22.7876,72.86,31,1,4.05,clear sky
418,Ilulissat,GL,69.2167,-51.1,19.4,68,75,5.75,broken clouds
419,Lasa,IT,46.6166,10.7002,51.8,64,0,5.75,clear sky
420,Wamba,NG,8.9333,8.6,81.9,18,23,4.38,few clouds
421,Jumla,NP,29.2747,82.1838,42.75,25,69,4.34,broken clouds
422,Duku,NG,11.2361,4.9073,86.61,10,47,5.86,scattered clouds
423,Ladispoli,IT,41.9537,12.0735,54.0,50,0,6.91,clear sky
424,Chake Chake,TZ,-5.2459,39.7666,79.75,79,65,7.65,broken clouds
425,Mundo Nuevo,MX,18.7,-95.5,75.96,58,7,12.77,clear sky
426,Mandalgovi,MN,45.7625,106.2708,30.96,27,34,1.99,scattered clouds
427,Porto Novo,BJ,6.4965,2.6036,84.2,84,40,14.97,scattered clouds
428,Leningradskiy,RU,69.3833,178.4167,4.19,87,100,4.72,overcast clouds
429,Kundiawa,PG,-6.0167,144.9667,63.97,91,100,0.49,overcast clouds
430,Gazanjyk,TM,39.2446,55.5154,56.7,47,0,6.51,clear sky
431,Nouakchott,MR,18.0858,-15.9785,75.2,64,75,17.27,broken clouds
432,Muroto,JP,33.2833,134.15,57.2,62,75,21.85,broken clouds
433,Zwedru,LR,6.0667,-8.1281,73.9,96,83,3.62,light rain
434,Carahue,CL,-38.7,-73.1667,62.6,67,0,12.66,clear sky
435,Qui Nhon,VN,13.7667,109.2333,73.99,91,71,7.2,broken clouds
436,Calatayud,ES,41.3535,-1.6432,53.6,82,0,3.44,clear sky
437,Odweyne,SO,9.4092,45.064,76.62,39,82,3.83,broken clouds
438,Maragogi,BR,-9.0122,-35.2225,79.36,78,14,9.04,few clouds
439,Birin,NP,26.8865,88.0718,55.9,18,0,5.95,clear sky
440,Sanghar,PK,26.0466,68.9481,77.0,61,0,6.91,haze
441,Slave Lake,CA,55.2834,-114.769,41.0,75,75,16.11,broken clouds
442,George Town,MY,5.4112,100.3354,82.99,89,20,3.67,few clouds
443,Severo-Yeniseyskiy,RU,60.3725,93.0408,29.79,97,100,7.65,overcast clouds
444,Broome,US,42.2506,-75.833,52.0,37,20,16.11,few clouds
445,Magnitogorsk,RU,53.4186,59.0472,35.6,93,90,17.9,overcast clouds
446,Xichang,CN,27.8964,102.2634,57.97,39,100,0.76,overcast clouds
447,Bandarbeyla,SO,9.4942,50.8122,77.92,79,50,2.08,scattered clouds
448,Dubbo,AU,-32.25,148.6167,62.6,82,1,9.22,clear sky
449,San Rafael,AR,-34.6177,-68.3301,77.43,43,100,10.31,light rain
450,Micheldorf,AT,46.9222,14.4405,35.6,64,5,4.61,clear sky
451,Shaoxing,CN,30.011,120.5715,48.0,66,0,2.24,clear sky
452,San Cristobal,VE,7.7669,-72.225,80.6,78,40,6.91,scattered clouds
453,Plettenberg Bay,ZA,-34.0527,23.3716,66.72,85,100,4.99,overcast clouds
454,Roebourne,AU,-20.7833,117.1333,80.74,41,6,7.36,clear sky
455,Monrovia,LR,6.3005,-10.7969,80.6,94,40,7.74,scattered clouds
456,Socorro,US,31.6546,-106.3033,86.0,20,40,6.91,scattered clouds
457,Noyabrsk,RU,63.1994,75.4507,32.5,96,100,13.53,overcast clouds
458,Sabla,NG,12.7525,4.7077,84.97,9,0,7.74,clear sky
459,Dzilam Gonzalez,MX,21.2833,-88.9333,77.86,56,60,12.53,broken clouds
460,Gubkinskiy,RU,64.434,76.5026,32.83,97,100,13.42,overcast clouds
461,Lagoa,PT,39.05,-27.9833,60.08,82,99,16.8,overcast clouds
462,Ketchikan,US,55.3422,-131.6461,42.8,70,90,6.91,overcast clouds
463,Novaya Zaimka,RU,56.4857,66.9241,32.13,96,99,9.35,overcast clouds
464,Coquimbo,CL,-29.9533,-71.3436,64.4,63,20,8.05,few clouds
465,West Bay,KY,19.3667,-81.4167,80.6,65,75,16.11,broken clouds
466,Kantang,TH,7.4054,99.5156,77.92,88,96,3.27,overcast clouds
467,Oskaloosa,US,41.2964,-92.6444,82.4,30,1,20.71,clear sky
468,Ulkan,RU,57.243,107.3223,19.74,96,100,4.25,light snow
469,Gobabis,NA,-22.45,18.9667,72.66,35,6,9.24,clear sky
470,Salinopolis,BR,-0.6136,-47.3561,78.84,86,84,10.65,light rain
471,Seminole,US,28.7086,-81.2081,75.0,43,75,6.91,broken clouds
472,Celestun,MX,20.8667,-90.4,79.09,59,24,22.64,few clouds
473,Sao Joao Da Barra,BR,-21.6403,-41.0511,78.8,73,75,13.8,broken clouds
474,Roswell,US,34.0232,-84.3616,72.0,21,1,5.75,clear sky
475,Farah,AF,32.5,62.5,55.94,27,0,5.55,clear sky
476,Cap Malheureux,MU,-19.9842,57.6142,81.0,77,8,8.01,clear sky
477,Canora,CA,51.6333,-102.4343,55.4,33,75,23.02,broken clouds
478,Duayaw Nkwanta,GH,7.1724,-2.1028,75.88,80,74,3.2,light rain
479,Bealanana,MG,-14.55,48.7333,63.84,98,30,1.79,scattered clouds
480,Touros,BR,-5.1989,-35.4608,78.8,83,20,8.05,few clouds
481,Lompoc,US,34.6391,-120.4579,64.4,52,75,16.11,broken clouds
482,Lebyazhye,RU,55.2689,66.4947,30.6,97,100,7.72,overcast clouds
483,Florianopolis,BR,-27.6146,-48.5012,78.01,73,40,8.05,scattered clouds
484,Zell Am See,AT,47.3256,12.7944,32.0,70,4,5.26,clear sky
485,Joao Camara,BR,-5.5375,-35.8197,78.8,83,20,8.05,few clouds
486,Darhan,MN,49.4867,105.9228,33.4,68,3,6.02,clear sky
487,Acari,PE,-15.4311,-74.6158,77.92,68,100,5.79,overcast clouds
488,Japura,ID,-0.3167,102.35,74.55,90,99,2.51,overcast clouds
489,Chichli,IN,22.8333,78.8167,78.73,10,0,1.57,clear sky
490,Khash,IR,28.2211,61.2158,63.54,21,39,4.61,scattered clouds
491,Sorgun,TR,39.8101,35.186,46.51,76,46,10.16,light rain
492,Plouzane,FR,48.3833,-4.6167,41.0,87,0,4.61,clear sky
493,Wanning,CN,18.8003,110.3967,74.3,92,5,5.32,clear sky
494,Brufut,GM,13.3814,-16.7518,69.8,88,0,9.48,clear sky
495,Mount Gambier,AU,-37.8333,140.7667,57.2,67,80,10.36,broken clouds
496,Ouesso,CG,1.6136,16.0517,75.94,74,53,3.15,broken clouds
497,Karla,EE,59.3723,24.9275,37.99,87,90,24.16,overcast clouds
498,Glarus,CH,47.0406,9.068,39.99,62,1,4.0,clear sky
499,Jiwani,PK,25.05,61.7417,80.2,73,0,10.74,clear sky
500,Allapalli,IN,19.4167,80.0667,82.76,27,0,2.57,clear sky
501,Zaysan,KZ,47.4667,84.8667,40.05,38,0,4.85,clear sky
502,Joshimath,IN,30.5667,79.5667,49.8,32,22,8.01,few clouds
503,Qaqortoq,GL,60.7167,-46.0333,37.4,87,90,3.44,overcast clouds
504,Smithers,CA,54.7804,-127.1743,41.0,52,20,12.66,few clouds
505,Alberton,CA,46.8168,-64.0654,33.8,100,100,19.57,snow
506,Preveza,GR,38.95,20.75,59.0,77,20,4.61,few clouds
507,Nanortalik,GL,60.1432,-45.2371,34.16,88,16,7.76,few clouds
508,Husavik,IS,66.0449,-17.3389,17.6,67,90,14.97,overcast clouds
509,Neiafu,TO,-18.65,-173.9833,80.6,83,75,3.44,broken clouds
510,Budhlada,IN,29.9333,75.5667,74.97,23,74,7.34,broken clouds
511,Fuyu,CN,45.1833,124.8167,39.85,33,0,9.15,clear sky
512,Oum Hadjer,TD,13.2954,19.6966,85.06,12,60,10.74,broken clouds
513,Port Lincoln,AU,-34.7333,135.8667,62.69,80,0,12.06,clear sky
514,Lindi,TZ,-10.0,39.7167,77.0,94,20,9.22,few clouds
515,Lensk,RU,60.7253,114.9278,0.63,99,100,3.02,overcast clouds
516,Putina,PE,-15.4667,-69.4333,45.68,71,99,5.35,moderate rain
517,Port Macquarie,AU,-31.4333,152.9167,68.0,100,100,1.14,overcast clouds
518,Mayo,US,38.8876,-76.5119,69.8,28,1,8.05,clear sky
519,San Pedro,PH,14.35,121.0167,81.0,78,20,4.61,few clouds
520,Nha Trang,VN,12.25,109.1833,77.0,83,20,5.75,few clouds
521,Minab,IR,27.1467,57.0801,77.0,73,44,6.91,haze
522,Prado,BR,-17.3411,-39.2208,76.33,81,80,7.63,broken clouds
523,Maple Creek,CA,49.9168,-109.4848,64.4,22,100,19.57,overcast clouds
524,Sarahan,IN,31.5167,77.8,46.83,76,100,4.65,overcast clouds
525,Hokitika,NZ,-42.7167,170.9667,64.4,85,67,12.3,broken clouds
526,Salekhard,RU,66.53,66.6019,24.87,96,100,9.44,light snow
527,Neos Marmaras,GR,40.1,23.7833,51.01,81,99,5.01,overcast clouds
528,Tezu,IN,27.9167,96.1667,67.84,32,14,4.92,few clouds
529,Chivay,PE,-15.6383,-71.6011,48.16,89,98,7.76,light rain
530,Petropavlovsk-Kamchatskiy,RU,53.0452,158.6483,35.6,60,20,6.71,few clouds
531,San Policarpo,PH,12.1791,125.5072,81.27,67,100,10.96,overcast clouds
532,Puerto Del Rosario,ES,28.5004,-13.8627,66.2,63,20,10.36,few clouds
533,Tilichiki,RU,60.4667,166.1,13.73,89,100,15.52,light snow
534,Berlevag,NO,70.8578,29.0864,34.99,97,100,9.4,light snow
535,Solnechnyy,RU,50.7214,136.6319,30.78,51,20,3.62,few clouds
536,Puerto Escondido,MX,15.85,-97.0667,86.0,70,1,6.91,clear sky
537,Luquillo,PR,18.3725,-65.7166,80.6,65,1,8.05,clear sky
538,Pitkyaranta,RU,61.5734,31.4792,34.48,84,95,16.28,overcast clouds
539,Fuerte Olimpo,PY,-21.0415,-57.8738,89.4,32,80,4.41,broken clouds
540,Aksarka,RU,66.5606,67.7975,28.98,98,100,5.93,light snow
541,Prince George,CA,53.9166,-122.753,46.99,39,40,17.27,scattered clouds
542,Idlib,SY,35.9306,36.6339,53.6,76,40,8.05,scattered clouds
543,Cefalu,IT,38.0386,14.0229,57.99,81,95,4.0,overcast clouds
544,Bonavista,CA,48.6499,-53.1147,39.2,93,100,1.14,overcast clouds
545,Ashcroft,CA,50.7165,-121.2859,51.8,27,20,17.27,few clouds
546,Havre-Saint-Pierre,CA,50.2334,-63.5986,39.2,100,90,11.5,overcast clouds
547,Tiznit,MA,29.5833,-9.5,55.15,81,6,4.34,clear sky
548,Nirasaki,JP,35.7,138.45,59.0,96,77,3.4,broken clouds
549,Praia Da Vitoria,PT,38.7333,-27.0667,59.0,94,75,8.63,broken clouds
550,Samarai,PG,-10.6167,150.6667,83.21,78,54,8.81,broken clouds
551,Jizan,SA,17.3333,42.6667,82.4,74,0,5.75,clear sky
552,Harriston,CA,43.9001,-80.883,55.99,35,11,5.75,few clouds
553,Hauge,NO,58.3436,6.2812,34.0,81,98,30.69,light snow
554,Pishin,PK,30.5803,66.9961,64.22,43,100,4.76,overcast clouds
555,Belmonte,BR,-15.8631,-38.8828,75.2,83,75,3.44,light rain
556,Abnub,EG,27.2696,31.1511,64.4,42,0,11.5,clear sky
557,Antalaha,MG,-14.9003,50.2788,75.13,90,71,4.38,broken clouds
558,Honningsvag,NO,70.9821,25.9704,32.76,77,100,8.99,light snow
559,Oranjemund,NA,-28.55,16.4333,62.15,95,25,5.91,scattered clouds
560,Matagami,CA,49.7502,-77.6328,41.0,60,1,10.36,clear sky
561,Gazojak,TM,41.1875,61.4036,50.52,51,7,9.75,clear sky
562,Langsa,ID,4.4683,97.9683,74.07,95,100,1.81,overcast clouds
563,Yar-Sale,RU,66.8333,70.8333,32.16,98,100,6.35,light snow
564,Nampula,MZ,-15.1165,39.2666,71.6,94,90,8.05,moderate rain
565,Kavaratti,IN,10.5669,72.642,81.99,70,45,12.8,scattered clouds
566,Opuwo,NA,-18.0607,13.84,73.8,44,19,5.73,few clouds
567,Arica,CL,-18.475,-70.3042,68.0,73,0,8.05,clear sky
568,Iskateley,RU,67.6803,53.1512,12.65,94,21,8.25,few clouds
569,Sawakin,SD,19.1059,37.3321,74.35,64,39,9.26,scattered clouds
570,Pinheiro Machado,BR,-31.5783,-53.3811,70.0,90,21,11.99,few clouds
571,Emba,KZ,48.8264,58.1442,37.24,91,94,8.19,overcast clouds
572,Eureka,US,40.8021,-124.1637,55.0,68,97,8.01,overcast clouds
573,Salinas,US,36.6777,-121.6555,62.6,51,1,12.66,clear sky
574,Raudeberg,NO,61.9875,5.1352,28.99,78,100,23.47,light snow
575,Talaya,RU,61.3833,152.75,-3.8,96,100,3.22,overcast clouds
576,Batagay-Alyta,RU,67.8006,130.4114,-13.16,95,100,3.56,overcast clouds
577,Viseu,PT,40.661,-7.9097,54.0,64,0,5.79,clear sky
578,Xuanzhou,CN,30.9525,118.7553,44.64,56,63,4.05,broken clouds
579,Madinat Sittah Uktubar,EG,29.8167,31.05,63.0,36,0,11.5,clear sky
580,Gravdal,NO,68.1214,13.5031,34.09,62,100,13.27,light snow
581,Montepuez,MZ,-13.1256,38.9997,68.09,99,68,4.32,broken clouds
582,Saint Anthony,US,45.0205,-93.218,77.0,20,1,6.91,clear sky
583,Kozhevnikovo,RU,56.2589,83.9714,23.0,89,100,3.6,overcast clouds
584,Wajid,SO,3.8093,43.2471,78.22,74,83,9.31,broken clouds
585,Muros,ES,42.7762,-9.0603,57.0,76,3,6.89,clear sky
586,Waipawa,NZ,-41.4122,175.5153,66.2,77,20,19.57,few clouds
587,Marshfield,US,44.6689,-90.1718,75.2,19,1,16.11,clear sky
588,Kentau,KZ,43.5206,68.5094,43.14,84,90,15.93,overcast clouds
589,Jasper,US,37.2001,-94.3502,75.2,41,1,10.36,clear sky
590,Carballo,ES,43.213,-8.691,52.0,76,0,2.3,clear sky
591,Itarema,BR,-2.9248,-39.9167,79.03,83,99,11.68,overcast clouds
592,Soyo,AO,-6.1349,12.3689,80.26,80,99,4.79,overcast clouds
593,Placido De Castro,BR,-10.3353,-67.1856,77.22,94,49,0.85,scattered clouds
594,Yate,GB,51.5407,-2.4184,46.0,89,39,1.99,scattered clouds
595,Lake City,US,30.1897,-82.6393,73.4,28,1,4.61,clear sky
596,Tchollire,CM,8.4022,14.1698,83.88,17,44,1.95,scattered clouds
597,Charagua,BO,-19.8,-63.2167,77.0,73,75,7.56,broken clouds
598,Ewa Beach,US,21.3156,-158.0072,80.6,54,1,12.66,clear sky
599,Umm Kaddadah,SD,13.6017,26.6876,74.79,10,46,13.47,scattered clouds
600,Rio Gallegos,AR,-51.6226,-69.2181,48.2,61,40,13.8,scattered clouds
601,San Bartolome De Tirajana,ES,27.9248,-15.5733,64.4,63,20,8.05,few clouds
602,Kyra,RU,49.5776,111.9753,27.64,78,13,4.99,few clouds
603,Ust-Omchug,RU,61.15,149.6333,1.67,81,100,4.0,overcast clouds
604,Sishui,CN,35.6489,117.2758,45.19,39,28,3.33,scattered clouds
605,Manoel Urbano,BR,-8.8389,-69.2597,80.6,78,61,1.66,light rain
606,Nishihara,JP,26.1842,127.7558,66.2,63,75,20.71,broken clouds
607,Katra,IN,32.9833,74.95,62.29,53,98,10.67,overcast clouds
608,Darnah,LY,32.767,22.6367,73.31,24,10,28.61,clear sky
609,Korla,CN,41.7597,86.1469,48.02,32,29,11.9,scattered clouds
610,Funadhoo,MV,6.15,73.2667,83.48,68,26,12.91,scattered clouds
611,Nacozari,MX,25.3366,-108.2574,85.78,24,5,11.32,clear sky
612,Ambilobe,MG,-13.2,49.05,73.58,95,72,2.73,broken clouds
613,Sterling,US,39.0062,-77.4286,71.6,18,1,16.11,clear sky
614,Urumqi,CN,43.801,87.6005,42.8,56,0,8.95,clear sky
615,Evensk,RU,61.95,159.2333,13.59,53,100,27.63,overcast clouds
616,Masuguru,TZ,-11.3667,38.4167,71.49,97,75,2.57,broken clouds
617,Qandala,SO,11.472,49.8728,77.56,57,57,2.37,broken clouds
618,Kitimat,CA,54.0524,-128.6534,42.01,68,99,1.99,overcast clouds
619,Moose Jaw,CA,50.4001,-105.5344,69.8,13,100,12.66,overcast clouds
620,Pringsewu,ID,-5.3582,104.9744,73.45,95,100,1.14,light rain
621,Arkhangelsk,RU,64.5401,40.5433,33.8,93,90,6.71,light rain and snow
622,Ryotsu,JP,38.0833,138.4333,44.6,100,75,13.8,broken clouds
623,Domoni,KM,-12.2569,44.5319,80.26,85,76,6.4,broken clouds
624,Rockland,US,41.1668,-74.0496,63.0,34,44,1.01,scattered clouds
625,Kibungo,RW,-2.1597,30.5427,58.8,92,100,1.95,light rain
626,Namibe,AO,-15.1961,12.1522,78.85,82,88,5.44,overcast clouds
627,Hay River,CA,60.8156,-115.7999,19.4,63,100,6.91,overcast clouds
628,Pundaguitan,PH,6.3711,126.1689,80.78,76,92,6.98,overcast clouds
629,Marinette,US,45.1,-87.6307,57.2,38,1,9.22,clear sky
630,Lithakia,GR,37.7167,20.8333,60.8,94,75,5.55,broken clouds
631,Mineiros,BR,-17.5694,-52.5511,73.45,66,57,0.76,broken clouds
632,Erzin,TR,36.9559,36.2,59.0,82,4,2.91,clear sky
633,Ossora,RU,59.2353,163.0719,18.55,89,100,24.25,light snow
634,Perth,AU,-31.9333,115.8333,66.0,94,20,5.57,few clouds
635,Ekhabi,RU,53.5102,142.9671,12.51,80,5,9.89,clear sky
636,Chingola,ZM,-12.529,27.8838,59.61,97,37,4.07,scattered clouds
637,Sisimiut,GL,66.9395,-53.6735,26.56,95,100,6.91,snow
638,Sandwick,GB,60.0,-1.25,26.6,74,75,33.38,light snow
639,Makaha,US,21.4694,-158.2175,80.6,54,1,12.66,clear sky
640,Cavaillon,FR,43.8312,5.0359,55.99,41,0,11.5,clear sky
641,Sakakah,SA,29.9697,40.2064,60.8,16,0,3.44,clear sky
642,Otukpo,NG,7.1913,8.1329,87.78,34,100,3.06,overcast clouds
643,Porbandar,IN,21.6422,69.6093,78.85,76,0,7.72,clear sky
644,Saint-Pierre,RE,-21.3393,55.4781,77.0,78,0,4.61,clear sky
645,Henties Bay,NA,-22.116,14.2845,66.0,84,13,1.99,few clouds
646,Bazarnyye Mataki,RU,54.8833,49.9333,32.2,86,100,8.75,overcast clouds
647,Emmett,US,43.8735,-116.4993,73.0,25,66,1.01,broken clouds
648,Vallenar,CL,-28.5708,-70.7581,75.02,42,74,7.23,broken clouds
649,Saryozek,KZ,44.3583,77.9753,43.47,57,100,5.68,moderate rain
650,Daru,PG,-9.0763,143.2092,77.47,90,84,5.91,light rain
651,Cassilandia,BR,-19.1133,-51.7342,77.74,42,28,3.06,scattered clouds
652,Luzzi,IT,39.4461,16.2883,32.0,100,90,5.75,fog
653,Lalsk,RU,60.7415,47.5862,22.21,97,49,3.44,scattered clouds
654,Ozernovskiy,RU,51.5,156.5167,29.01,90,100,18.77,light snow
655,Erenhot,CN,43.6475,111.9767,39.61,20,87,4.65,overcast clouds
656,Kaili,ID,-3.4626,120.2147,67.6,72,100,3.78,overcast clouds
657,Lluta,PE,-16.0147,-72.0142,60.8,67,75,9.22,broken clouds
658,Menongue,AO,-14.6585,17.691,61.83,71,19,4.05,few clouds
659,Richards Bay,ZA,-28.783,32.0377,64.58,81,0,4.09,clear sky
660,Hermosillo,MX,29.0667,-110.9667,105.8,4,1,4.61,clear sky
661,Prieska,ZA,-29.6641,22.7474,75.0,25,0,4.76,clear sky
662,Vitim,RU,59.4511,112.5578,3.25,98,100,3.96,overcast clouds
663,Ramygala,LT,55.5167,24.3,37.4,60,10,6.91,clear sky
664,Sibolga,ID,1.7427,98.7792,75.94,88,66,2.24,broken clouds
665,Shelburne,CA,44.0787,-80.2041,55.4,33,1,9.22,clear sky
666,South River,US,40.4465,-74.386,64.99,31,50,1.01,scattered clouds
667,Hirara,JP,24.8,125.2833,66.2,63,75,12.66,broken clouds
668,Junagarh,IN,19.8667,82.9333,76.84,50,0,2.62,clear sky
669,Staryy Nadym,RU,65.6118,72.6842,32.36,93,100,10.78,overcast clouds
670,Vladimirescu,RO,46.15,21.4,39.0,93,75,6.91,broken clouds
671,Iguape,BR,-24.7081,-47.5553,72.21,83,9,8.79,clear sky
672,Luba,GQ,3.4568,8.5547,82.4,83,20,8.88,few clouds
673,Pinawa,CA,50.1489,-95.8811,54.81,47,100,7.9,overcast clouds
674,Beloha,MG,-25.1667,45.05,66.31,90,9,6.67,light rain
675,San Jose,US,37.3394,-121.895,64.99,48,75,9.22,broken clouds
676,Kyshtovka,RU,56.555,76.6271,28.11,85,100,9.24,overcast clouds
677,Sakyla,FI,61.0333,22.3333,41.0,81,90,9.22,light rain
678,Roald,NO,62.5833,6.1333,28.4,80,20,17.27,light snow
679,Salta,AR,-24.7859,-65.4117,64.4,88,40,6.91,scattered clouds
680,Meiganga,CM,6.5167,14.3,78.37,26,100,2.51,overcast clouds
681,Nacala,MZ,-14.5428,40.6728,74.1,94,99,7.29,overcast clouds
682,Poltavka,RU,54.3663,71.7632,31.53,87,100,9.78,overcast clouds
683,Talara,PE,-4.5772,-81.2719,73.13,80,48,11.72,scattered clouds
684,Norden,DE,53.6,7.2,41.0,89,93,5.01,overcast clouds
685,Belyy Yar,RU,53.6039,91.3903,26.6,80,25,2.24,scattered clouds
686,Sao Miguel Do Araguaia,BR,-13.275,-50.1628,75.74,82,81,3.94,broken clouds
687,Thinadhoo,MV,0.5333,72.9333,82.92,76,25,16.49,scattered clouds
688,Yanam,IN,16.7333,82.2167,76.35,96,75,3.13,broken clouds
689,Morant Bay,JM,17.8815,-76.4093,89.6,55,20,3.44,few clouds
690,Jalu,LY,29.0331,21.5482,71.06,11,0,11.77,clear sky
691,Nisia Floresta,BR,-6.0911,-35.2086,82.4,83,20,8.05,few clouds
692,Bratsk,RU,56.1325,101.6142,23.0,93,96,6.71,overcast clouds
693,Kardailovo,RU,51.5386,53.9042,33.71,83,100,10.51,overcast clouds
694,Vila,PT,42.0304,-8.1588,55.99,62,13,2.89,few clouds
695,Mokhsogollokh,RU,61.4681,128.9203,-14.73,100,97,1.01,overcast clouds
696,Nioro,GM,13.35,-15.75,79.88,47,100,10.49,overcast clouds
697,Karratha,AU,-20.7377,116.8463,80.73,46,7,6.22,clear sky
698,Pokaran,IN,26.9167,71.9167,81.21,26,3,13.24,clear sky
699,Moree,AU,-29.4667,149.85,69.8,73,74,6.91,broken clouds
700,Loei,TH,17.4167,101.5,78.01,99,100,1.1,overcast clouds
701,Pyapon,MM,16.2833,95.6833,77.74,80,100,5.97,overcast clouds
702,Oyama,JP,36.3,139.8,64.0,94,90,3.44,mist
703,Cumaral,CO,4.2708,-73.4867,80.8,77,65,2.51,broken clouds
704,Muli,MV,2.9167,73.5667,83.55,75,50,14.41,scattered clouds
705,Aljezur,PT,37.3191,-8.8033,56.16,94,4,5.97,clear sky
706,Toora-Khem,RU,52.4675,96.11,21.13,97,34,0.78,scattered clouds
707,Orocue,CO,4.7912,-71.3354,85.24,63,100,9.82,heavy intensity rain
708,Rio Verde De Mato Grosso,BR,-18.9181,-54.8442,83.52,36,57,5.77,broken clouds
709,Hami,CN,42.8,93.45,48.72,31,24,8.52,few clouds
710,Viedma,AR,-40.8135,-62.9967,81.72,33,1,15.37,clear sky
711,Patacamaya,BO,-17.2333,-67.9167,49.5,66,100,9.42,overcast clouds
